{
"type": "FeatureCollection",
"name": "limite_municipalite_centroide",
"crs": { "type": "name", "properties": { "name": "urn:ogc:def:crs:OGC:1.3:CRS84" } },
"features": [
{ "type": "Feature", "properties": { "name": "Yaoundé I", "ref:COG": "CE0101" }, "geometry": { "type": "Point", "coordinates": [ 11.521558010648068, 3.928193434684519 ] } },
{ "type": "Feature", "properties": { "name": "Yaoundé III", "ref:COG": "CE0103" }, "geometry": { "type": "Point", "coordinates": [ 11.47472065307298, 3.782808761239933 ] } },
{ "type": "Feature", "properties": { "name": "Yaoundé IV", "ref:COG": "CE0104" }, "geometry": { "type": "Point", "coordinates": [ 11.531681711690513, 3.818558525885092 ] } },
{ "type": "Feature", "properties": { "name": "Yaoundé VI", "ref:COG": "CE0106" }, "geometry": { "type": "Point", "coordinates": [ 11.476632612749395, 3.839190672772169 ] } },
{ "type": "Feature", "properties": { "name": "Campo", "ref:COG": "SU0302" }, "geometry": { "type": "Point", "coordinates": [ 10.107655474943012, 2.422453059383357 ] } },
{ "type": "Feature", "properties": { "name": "Bertoua I", "ref:COG": "ES0101" }, "geometry": { "type": "Point", "coordinates": [ 13.648869905343201, 4.542411449617788 ] } },
{ "type": "Feature", "properties": { "name": "Bertoua II", "ref:COG": "ES0106" }, "geometry": { "type": "Point", "coordinates": [ 13.697457661144503, 4.556982221614942 ] } },
{ "type": "Feature", "properties": { "name": "Douala I", "ref:COG": "LT0101" }, "geometry": { "type": "Point", "coordinates": [ 9.693179603956198, 4.042980039970016 ] } },
{ "type": "Feature", "properties": { "name": "Douala II", "ref:COG": "LT0102" }, "geometry": { "type": "Point", "coordinates": [ 9.715486288861555, 4.015193344425769 ] } },
{ "type": "Feature", "properties": { "name": "Douala V", "ref:COG": "LT0105" }, "geometry": { "type": "Point", "coordinates": [ 9.784857585887686, 4.133464229062643 ] } },
{ "type": "Feature", "properties": { "name": "Yaoundé VII", "ref:COG": "CE0107" }, "geometry": { "type": "Point", "coordinates": [ 11.448963186355899, 3.875857721366281 ] } },
{ "type": "Feature", "properties": { "name": "Yaoundé V", "ref:COG": "CE0105" }, "geometry": { "type": "Point", "coordinates": [ 11.550918615562818, 3.897759622385539 ] } },
{ "type": "Feature", "properties": { "name": "Yaoundé II", "ref:COG": "CE0102" }, "geometry": { "type": "Point", "coordinates": [ 11.489070153493344, 3.903095327611776 ] } },
{ "type": "Feature", "properties": { "name": "Edzendouan", "ref:COG": "CE0907" }, "geometry": { "type": "Point", "coordinates": [ 11.733784282326493, 4.201052832538303 ] } },
{ "type": "Feature", "properties": { "name": "Akono", "ref:COG": "CE1002" }, "geometry": { "type": "Point", "coordinates": [ 11.302480424799377, 3.487608487046208 ] } },
{ "type": "Feature", "properties": { "name": "Darak", "ref:COG": "EN0209" }, "geometry": { "type": "Point", "coordinates": [ 14.310948537644792, 12.880688690671112 ] } },
{ "type": "Feature", "properties": { "name": "Blangoua", "ref:COG": "EN0206" }, "geometry": { "type": "Point", "coordinates": [ 14.586208712252098, 12.743229263289196 ] } },
{ "type": "Feature", "properties": { "name": "Hilé - Alifa", "ref:COG": "EN0208" }, "geometry": { "type": "Point", "coordinates": [ 14.369268189365402, 12.671376047276482 ] } },
{ "type": "Feature", "properties": { "name": "Fotokol", "ref:COG": "EN0207" }, "geometry": { "type": "Point", "coordinates": [ 14.284193236990921, 12.451030004220481 ] } },
{ "type": "Feature", "properties": { "name": "Makary", "ref:COG": "EN0202" }, "geometry": { "type": "Point", "coordinates": [ 14.527271390517649, 12.421188626328046 ] } },
{ "type": "Feature", "properties": { "name": "Goulfey قولفي", "ref:COG": "EN0204" }, "geometry": { "type": "Point", "coordinates": [ 14.730005339784356, 12.436318746566997 ] } },
{ "type": "Feature", "properties": { "name": "Kousséri", "ref:COG": "EN0201" }, "geometry": { "type": "Point", "coordinates": [ 14.982795947996271, 12.067796292512998 ] } },
{ "type": "Feature", "properties": { "name": "Logone-Birni", "ref:COG": "EN0203" }, "geometry": { "type": "Point", "coordinates": [ 14.872558568847497, 11.813782157714426 ] } },
{ "type": "Feature", "properties": { "name": "Waza", "ref:COG": "EN0205" }, "geometry": { "type": "Point", "coordinates": [ 14.699936924916502, 11.377430476590566 ] } },
{ "type": "Feature", "properties": { "name": "Zina", "ref:COG": "EN0210" }, "geometry": { "type": "Point", "coordinates": [ 14.950534245238433, 11.193798477547174 ] } },
{ "type": "Feature", "properties": { "name": "Mora", "ref:COG": "EN0501" }, "geometry": { "type": "Point", "coordinates": [ 14.281492577942792, 11.126310719952176 ] } },
{ "type": "Feature", "properties": { "name": "Kolofata", "ref:COG": "EN0503" }, "geometry": { "type": "Point", "coordinates": [ 14.024551138425716, 11.156140235527808 ] } },
{ "type": "Feature", "properties": { "name": "Tokombéré", "ref:COG": "EN0502" }, "geometry": { "type": "Point", "coordinates": [ 14.128843990684675, 10.874141169828141 ] } },
{ "type": "Feature", "properties": { "name": "Mozogo", "ref:COG": "EN0606" }, "geometry": { "type": "Point", "coordinates": [ 13.877199533636656, 11.028323360840947 ] } },
{ "type": "Feature", "properties": { "name": "Koza", "ref:COG": "EN0603" }, "geometry": { "type": "Point", "coordinates": [ 13.895086205617924, 10.894617336287965 ] } },
{ "type": "Feature", "properties": { "name": "Soulèdé-Roua", "ref:COG": "EN0607" }, "geometry": { "type": "Point", "coordinates": [ 13.96828150782753, 10.775327962272236 ] } },
{ "type": "Feature", "properties": { "name": "Mokolo", "ref:COG": "EN0601" }, "geometry": { "type": "Point", "coordinates": [ 13.848563423736392, 10.629763015270328 ] } },
{ "type": "Feature", "properties": { "name": "Mogodé", "ref:COG": "EN0606" }, "geometry": { "type": "Point", "coordinates": [ 13.644164635001401, 10.518969105721753 ] } },
{ "type": "Feature", "properties": { "name": "Hina", "ref:COG": "EN0604" }, "geometry": { "type": "Point", "coordinates": [ 13.819965984025405, 10.325758005386451 ] } },
{ "type": "Feature", "properties": { "name": "Bourha", "ref:COG": "EN0602" }, "geometry": { "type": "Point", "coordinates": [ 13.570031637092923, 10.250273858537062 ] } },
{ "type": "Feature", "properties": { "name": "Pétté", "ref:COG": "EN0105" }, "geometry": { "type": "Point", "coordinates": [ 14.544587206135091, 10.963712132914711 ] } },
{ "type": "Feature", "properties": { "name": "Bogo", "ref:COG": "EN0103" }, "geometry": { "type": "Point", "coordinates": [ 14.67346513129907, 10.771405603210225 ] } },
{ "type": "Feature", "properties": { "name": "Dargala", "ref:COG": "EN0108" }, "geometry": { "type": "Point", "coordinates": [ 14.573810495507033, 10.539418645773198 ] } },
{ "type": "Feature", "properties": { "name": "Maroua III", "ref:COG": "EN0107" }, "geometry": { "type": "Point", "coordinates": [ 14.403899458881307, 10.780562136331147 ] } },
{ "type": "Feature", "properties": { "name": "Maroua I", "ref:COG": "EN0101" }, "geometry": { "type": "Point", "coordinates": [ 14.270050597081628, 10.5491751216561 ] } },
{ "type": "Feature", "properties": { "name": "Maroua II", "ref:COG": "EN0106" }, "geometry": { "type": "Point", "coordinates": [ 14.317105190650144, 10.636597441876194 ] } },
{ "type": "Feature", "properties": { "name": "Meri", "ref:COG": "EN0102" }, "geometry": { "type": "Point", "coordinates": [ 14.194868884050319, 10.731366290010232 ] } },
{ "type": "Feature", "properties": { "name": "Ndoukoula", "ref:COG": "EN0109" }, "geometry": { "type": "Point", "coordinates": [ 14.070716894291946, 10.361831662230616 ] } },
{ "type": "Feature", "properties": { "name": "Gazawa", "ref:COG": "EN0104" }, "geometry": { "type": "Point", "coordinates": [ 14.114080045954349, 10.548581140707283 ] } },
{ "type": "Feature", "properties": { "name": "Moulvoudaye", "ref:COG": "EN0404" }, "geometry": { "type": "Point", "coordinates": [ 14.77206928681759, 10.396759159179846 ] } },
{ "type": "Feature", "properties": { "name": "Touloum", "ref:COG": "EN0406" }, "geometry": { "type": "Point", "coordinates": [ 14.838882884676238, 10.195441606190043 ] } },
{ "type": "Feature", "properties": { "name": "Dziguilao", "ref:COG": "EN0407" }, "geometry": { "type": "Point", "coordinates": [ 14.762489150855677, 10.022953395963569 ] } },
{ "type": "Feature", "properties": { "name": "Guidiguis", "ref:COG": "EN0403" }, "geometry": { "type": "Point", "coordinates": [ 14.648289302747107, 10.083805339942757 ] } },
{ "type": "Feature", "properties": { "name": "Kaélé", "ref:COG": "EN0401" }, "geometry": { "type": "Point", "coordinates": [ 14.383396964354457, 10.159703248587363 ] } },
{ "type": "Feature", "properties": { "name": "Moutourwa", "ref:COG": "EN0405" }, "geometry": { "type": "Point", "coordinates": [ 14.143024902759379, 10.244678770219123 ] } },
{ "type": "Feature", "properties": { "name": "Mindif", "ref:COG": "EN0402" }, "geometry": { "type": "Point", "coordinates": [ 14.470684161768482, 10.394378087131525 ] } },
{ "type": "Feature", "properties": { "name": "Maga", "ref:COG": "EN0304" }, "geometry": { "type": "Point", "coordinates": [ 14.932309332051389, 10.886193579979901 ] } },
{ "type": "Feature", "properties": { "name": "Kai-Kai", "ref:COG": "EN0311" }, "geometry": { "type": "Point", "coordinates": [ 14.976657537810619, 10.636326320594611 ] } },
{ "type": "Feature", "properties": { "name": "Guémé", "ref:COG": "EN0307" }, "geometry": { "type": "Point", "coordinates": [ 15.094118068916208, 10.45853673199103 ] } },
{ "type": "Feature", "properties": { "name": "Yagoua", "ref:COG": "EN0301" }, "geometry": { "type": "Point", "coordinates": [ 15.228523044476889, 10.205635711305161 ] } },
{ "type": "Feature", "properties": { "name": "Guéré", "ref:COG": "EN0303" }, "geometry": { "type": "Point", "coordinates": [ 15.31334205464622, 10.096806821591542 ] } },
{ "type": "Feature", "properties": { "name": "Gobo", "ref:COG": "EN0308" }, "geometry": { "type": "Point", "coordinates": [ 15.4678664738399, 10.039241755665477 ] } },
{ "type": "Feature", "properties": { "name": "Wina", "ref:COG": "EN0306" }, "geometry": { "type": "Point", "coordinates": [ 15.118387954494018, 10.04953554902 ] } },
{ "type": "Feature", "properties": { "name": "Datchéka", "ref:COG": "EN0309" }, "geometry": { "type": "Point", "coordinates": [ 15.051573362445, 9.997801333115095 ] } },
{ "type": "Feature", "properties": { "name": "Tchatibali", "ref:COG": "EN0310" }, "geometry": { "type": "Point", "coordinates": [ 14.8799997542735, 9.988893255912718 ] } },
{ "type": "Feature", "properties": { "name": "Kalfou", "ref:COG": "EN0305" }, "geometry": { "type": "Point", "coordinates": [ 15.027261258588146, 10.274793516788177 ] } },
{ "type": "Feature", "properties": { "name": "Kar-Hay", "ref:COG": "EN0302" }, "geometry": { "type": "Point", "coordinates": [ 14.963307591148538, 10.087514669495185 ] } },
{ "type": "Feature", "properties": { "name": "Figuil", "ref:COG": "NO0203" }, "geometry": { "type": "Point", "coordinates": [ 14.069491286630662, 9.915738215041941 ] } },
{ "type": "Feature", "properties": { "name": "Guider", "ref:COG": "NO0201" }, "geometry": { "type": "Point", "coordinates": [ 13.850129513890952, 9.920879196368139 ] } },
{ "type": "Feature", "properties": { "name": "Mayo-Oulo", "ref:COG": "NO0203" }, "geometry": { "type": "Point", "coordinates": [ 13.60218306691489, 10.007086774053155 ] } },
{ "type": "Feature", "properties": { "name": "Baschéo", "ref:COG": "NO0110" }, "geometry": { "type": "Point", "coordinates": [ 13.363663693928672, 9.789582092159446 ] } },
{ "type": "Feature", "properties": { "name": "Dembo", "ref:COG": "NO0105" }, "geometry": { "type": "Point", "coordinates": [ 13.529276719724862, 9.756033974220243 ] } },
{ "type": "Feature", "properties": { "name": "Pitoa", "ref:COG": "NO0103" }, "geometry": { "type": "Point", "coordinates": [ 13.619680581911961, 9.470667676402524 ] } },
{ "type": "Feature", "properties": { "name": "Bibemi", "ref:COG": "NO0102" }, "geometry": { "type": "Point", "coordinates": [ 13.912702055307072, 9.314558968817776 ] } },
{ "type": "Feature", "properties": { "name": "Lagdo", "ref:COG": "NO0104" }, "geometry": { "type": "Point", "coordinates": [ 13.567854894382039, 8.770716007245253 ] } },
{ "type": "Feature", "properties": { "name": "Ngong", "ref:COG": "NO0106" }, "geometry": { "type": "Point", "coordinates": [ 13.291556353085172, 8.967965944331086 ] } },
{ "type": "Feature", "properties": { "name": "Touroua", "ref:COG": "NO0112" }, "geometry": { "type": "Point", "coordinates": [ 12.994868840406127, 9.041281550606833 ] } },
{ "type": "Feature", "properties": { "name": "Mayo-Hourna", "ref:COG": "NO0109" }, "geometry": { "type": "Point", "coordinates": [ 13.123457129409996, 9.342547004190989 ] } },
{ "type": "Feature", "properties": { "name": "Gachiga", "ref:COG": "NO0111" }, "geometry": { "type": "Point", "coordinates": [ 13.252321733809977, 9.485006712105971 ] } },
{ "type": "Feature", "properties": { "name": "Garoua I", "ref:COG": "NO0101" }, "geometry": { "type": "Point", "coordinates": [ 13.364998680306137, 9.323903100572286 ] } },
{ "type": "Feature", "properties": { "name": "Garoua II", "ref:COG": "NO0107" }, "geometry": { "type": "Point", "coordinates": [ 13.425522689597477, 9.343945169598383 ] } },
{ "type": "Feature", "properties": { "name": "Garoua III", "ref:COG": "NO0108" }, "geometry": { "type": "Point", "coordinates": [ 13.465388942077995, 9.255988488479515 ] } },
{ "type": "Feature", "properties": { "name": "Béka", "ref:COG": "NO0302" }, "geometry": { "type": "Point", "coordinates": [ 12.620118889144461, 8.616916724300948 ] } },
{ "type": "Feature", "properties": { "name": "Poli", "ref:COG": "NO0302" }, "geometry": { "type": "Point", "coordinates": [ 12.920311574801076, 8.191671359187371 ] } },
{ "type": "Feature", "properties": { "name": "Rey-Bouba", "ref:COG": "NO0402" }, "geometry": { "type": "Point", "coordinates": [ 14.36394061378089, 8.798969316478704 ] } },
{ "type": "Feature", "properties": { "name": "Madingring", "ref:COG": "NO0404" }, "geometry": { "type": "Point", "coordinates": [ 14.986286619000239, 8.23547054417571 ] } },
{ "type": "Feature", "properties": { "name": "Touboro", "ref:COG": "NO0403" }, "geometry": { "type": "Point", "coordinates": [ 15.001305908913848, 7.613140434191084 ] } },
{ "type": "Feature", "properties": { "name": "Tcholliré", "ref:COG": "NO0401" }, "geometry": { "type": "Point", "coordinates": [ 14.059619986347784, 8.031591091132857 ] } },
{ "type": "Feature", "properties": { "name": "Djohong", "ref:COG": "AD0303" }, "geometry": { "type": "Point", "coordinates": [ 14.838310527311631, 6.917516568821692 ] } },
{ "type": "Feature", "properties": { "name": "Ngaoui", "ref:COG": "AD0304" }, "geometry": { "type": "Point", "coordinates": [ 14.959941444869305, 6.789440050280523 ] } },
{ "type": "Feature", "properties": { "name": "Meiganga", "ref:COG": "AD0301" }, "geometry": { "type": "Point", "coordinates": [ 14.369458359413903, 6.427422673366216 ] } },
{ "type": "Feature", "properties": { "name": "Dir", "ref:COG": "AD0302" }, "geometry": { "type": "Point", "coordinates": [ 13.682034594513947, 6.339522202926684 ] } },
{ "type": "Feature", "properties": { "name": "Bélel", "ref:COG": "AD0103" }, "geometry": { "type": "Point", "coordinates": [ 14.353675287753804, 7.078042121889847 ] } },
{ "type": "Feature", "properties": { "name": "Ngan'ha", "ref:COG": "AD0107" }, "geometry": { "type": "Point", "coordinates": [ 13.880261234729838, 7.451214012144282 ] } },
{ "type": "Feature", "properties": { "name": "Nyambaka", "ref:COG": "AD0108" }, "geometry": { "type": "Point", "coordinates": [ 13.75687136209169, 6.935249333692949 ] } },
{ "type": "Feature", "properties": { "name": "Martap", "ref:COG": "AD0104" }, "geometry": { "type": "Point", "coordinates": [ 13.196787539212732, 7.197470918282054 ] } },
{ "type": "Feature", "properties": { "name": "Mbé", "ref:COG": "AD0102" }, "geometry": { "type": "Point", "coordinates": [ 13.551796037494583, 7.773754421434757 ] } },
{ "type": "Feature", "properties": { "name": "Ngaoundéré I", "ref:COG": "AD0101" }, "geometry": { "type": "Point", "coordinates": [ 13.530363195436475, 7.2653279397283 ] } },
{ "type": "Feature", "properties": { "name": "Ngaoundéré II", "ref:COG": "AD0105" }, "geometry": { "type": "Point", "coordinates": [ 13.632255508869148, 7.353224699944721 ] } },
{ "type": "Feature", "properties": { "name": "Ngaoundéré III", "ref:COG": "AD0106" }, "geometry": { "type": "Point", "coordinates": [ 13.569671946112468, 7.493664934697248 ] } },
{ "type": "Feature", "properties": { "name": "Kontcha", "ref:COG": "AD0504" }, "geometry": { "type": "Point", "coordinates": [ 12.282773279117841, 8.032308347978299 ] } },
{ "type": "Feature", "properties": { "name": "Mayo-Baléo", "ref:COG": "AD0502" }, "geometry": { "type": "Point", "coordinates": [ 12.304485895755152, 7.686883429688443 ] } },
{ "type": "Feature", "properties": { "name": "Tignère", "ref:COG": "AD0501" }, "geometry": { "type": "Point", "coordinates": [ 12.703595564074277, 7.374017617413361 ] } },
{ "type": "Feature", "properties": { "name": "Galim-Tignère", "ref:COG": "AD0503" }, "geometry": { "type": "Point", "coordinates": [ 12.232929129087942, 7.157185045443472 ] } },
{ "type": "Feature", "properties": { "name": "Banyo", "ref:COG": "AD0201" }, "geometry": { "type": "Point", "coordinates": [ 11.898111527455269, 6.754229694153152 ] } },
{ "type": "Feature", "properties": { "name": "Bankim", "ref:COG": "AD0202" }, "geometry": { "type": "Point", "coordinates": [ 11.443477035708653, 6.260806952007724 ] } },
{ "type": "Feature", "properties": { "name": "Mayo-Darlé", "ref:COG": "AD0203" }, "geometry": { "type": "Point", "coordinates": [ 11.618167295072061, 6.490247880825386 ] } },
{ "type": "Feature", "properties": { "name": "Ngaoundal", "ref:COG": "AD0402" }, "geometry": { "type": "Point", "coordinates": [ 13.139209648737104, 6.352708194738639 ] } },
{ "type": "Feature", "properties": { "name": "Tibati", "ref:COG": "AD0401" }, "geometry": { "type": "Point", "coordinates": [ 12.549765588954244, 6.5220200054199 ] } },
{ "type": "Feature", "properties": { "name": "Bétaré-Oya", "ref:COG": "ES0102" }, "geometry": { "type": "Point", "coordinates": [ 13.783781471074734, 5.615071450059107 ] } },
{ "type": "Feature", "properties": { "name": "Garoua-Boulaï", "ref:COG": "ES0104" }, "geometry": { "type": "Point", "coordinates": [ 14.434085651944235, 5.729122193861102 ] } },
{ "type": "Feature", "properties": { "name": "Bélabo", "ref:COG": "ES0103" }, "geometry": { "type": "Point", "coordinates": [ 13.383691883995986, 5.127169849164433 ] } },
{ "type": "Feature", "properties": { "name": "Diang", "ref:COG": "ES0105" }, "geometry": { "type": "Point", "coordinates": [ 13.382204808595954, 4.623848164502792 ] } },
{ "type": "Feature", "properties": { "name": "Ngoura", "ref:COG": "ES0108" }, "geometry": { "type": "Point", "coordinates": [ 14.119200687382301, 4.898031378281228 ] } },
{ "type": "Feature", "properties": { "name": "Mandjou", "ref:COG": "ES0107" }, "geometry": { "type": "Point", "coordinates": [ 13.832716367502774, 4.770470493128641 ] } },
{ "type": "Feature", "properties": { "name": "Ouli", "ref:COG": "ES0407" }, "geometry": { "type": "Point", "coordinates": [ 14.567635674768793, 5.105988078994952 ] } },
{ "type": "Feature", "properties": { "name": "Kétté", "ref:COG": "ES0403" }, "geometry": { "type": "Point", "coordinates": [ 14.518274395131685, 4.774927935561768 ] } },
{ "type": "Feature", "properties": { "name": "Batouri", "ref:COG": "ES0401" }, "geometry": { "type": "Point", "coordinates": [ 14.387923277691797, 4.459619036543364 ] } },
{ "type": "Feature", "properties": { "name": "Kentzou", "ref:COG": "ES0404" }, "geometry": { "type": "Point", "coordinates": [ 14.947982615890369, 4.275952716393939 ] } },
{ "type": "Feature", "properties": { "name": "Ndélélé", "ref:COG": "ES0402" }, "geometry": { "type": "Point", "coordinates": [ 14.798303710828311, 4.03082963188076 ] } },
{ "type": "Feature", "properties": { "name": "Mbang", "ref:COG": "ES0405" }, "geometry": { "type": "Point", "coordinates": [ 14.202216831836964, 3.973288204819688 ] } },
{ "type": "Feature", "properties": { "name": "Nguélébok", "ref:COG": "ES0406" }, "geometry": { "type": "Point", "coordinates": [ 13.818616856103462, 4.19173526336678 ] } },
{ "type": "Feature", "properties": { "name": "Gari-Gombo", "ref:COG": "ES0203" }, "geometry": { "type": "Point", "coordinates": [ 14.897996981669516, 3.683875307471559 ] } },
{ "type": "Feature", "properties": { "name": "Yokadouma", "ref:COG": "ES0201" }, "geometry": { "type": "Point", "coordinates": [ 15.125490873984049, 3.118907613614264 ] } },
{ "type": "Feature", "properties": { "name": "Salapoumbé", "ref:COG": "ES0204" }, "geometry": { "type": "Point", "coordinates": [ 15.323437537178881, 2.64581617626332 ] } },
{ "type": "Feature", "properties": { "name": "Mouloundou", "ref:COG": "ES0202" }, "geometry": { "type": "Point", "coordinates": [ 15.451581291890113, 2.209472281667882 ] } },
{ "type": "Feature", "properties": { "name": "Ngoyla", "ref:COG": "ES0307" }, "geometry": { "type": "Point", "coordinates": [ 14.102993696454366, 2.514254390931121 ] } },
{ "type": "Feature", "properties": { "name": "Messock", "ref:COG": "ES0312" }, "geometry": { "type": "Point", "coordinates": [ 14.170779663894052, 3.049034212658374 ] } },
{ "type": "Feature", "properties": { "name": "Lomié", "ref:COG": "ES0303" }, "geometry": { "type": "Point", "coordinates": [ 13.536098891052868, 3.145370701797164 ] } },
{ "type": "Feature", "properties": { "name": "Somalomo", "ref:COG": "ES0314" }, "geometry": { "type": "Point", "coordinates": [ 12.950264559738105, 3.319795230229497 ] } },
{ "type": "Feature", "properties": { "name": "Mindourou", "ref:COG": "ES0313" }, "geometry": { "type": "Point", "coordinates": [ 13.787508831698936, 3.588935848617108 ] } },
{ "type": "Feature", "properties": { "name": "Atok", "ref:COG": "ES0309" }, "geometry": { "type": "Point", "coordinates": [ 12.769741185430044, 3.917779670492244 ] } },
{ "type": "Feature", "properties": { "name": "Messaména", "ref:COG": "ES0304" }, "geometry": { "type": "Point", "coordinates": [ 12.879167539290565, 3.619749036594502 ] } },
{ "type": "Feature", "properties": { "name": "Abong-Mbang", "ref:COG": "ES0301" }, "geometry": { "type": "Point", "coordinates": [ 13.249074935148554, 3.866962333422434 ] } },
{ "type": "Feature", "properties": { "name": "Angossas", "ref:COG": "ES0308" }, "geometry": { "type": "Point", "coordinates": [ 12.954571576652208, 4.085665606527608 ] } },
{ "type": "Feature", "properties": { "name": "Doumaintang", "ref:COG": "ES0310" }, "geometry": { "type": "Point", "coordinates": [ 13.217753042601053, 4.176684799420954 ] } },
{ "type": "Feature", "properties": { "name": "Dimako", "ref:COG": "ES0306" }, "geometry": { "type": "Point", "coordinates": [ 13.589822543062089, 4.342720998238504 ] } },
{ "type": "Feature", "properties": { "name": "Doumé", "ref:COG": "ES0302" }, "geometry": { "type": "Point", "coordinates": [ 13.398109547866026, 4.328679633480963 ] } },
{ "type": "Feature", "properties": { "name": "Mboma", "ref:COG": "ES0311" }, "geometry": { "type": "Point", "coordinates": [ 12.910734364850201, 4.199265454078655 ] } },
{ "type": "Feature", "properties": { "name": "Nguelemendouka", "ref:COG": "ES0305" }, "geometry": { "type": "Point", "coordinates": [ 12.972314725180453, 4.410925255313949 ] } },
{ "type": "Feature", "properties": { "name": "Yoko", "ref:COG": "CE0802" }, "geometry": { "type": "Point", "coordinates": [ 12.233557302312104, 5.454367636309934 ] } },
{ "type": "Feature", "properties": { "name": "Ngambé-Tikar", "ref:COG": "CE0803" }, "geometry": { "type": "Point", "coordinates": [ 11.643303687322618, 5.721064532701146 ] } },
{ "type": "Feature", "properties": { "name": "Ngoro", "ref:COG": "CE0804" }, "geometry": { "type": "Point", "coordinates": [ 11.47002474865603, 4.935542867849859 ] } },
{ "type": "Feature", "properties": { "name": "Ntui", "ref:COG": "CE0801" }, "geometry": { "type": "Point", "coordinates": [ 11.666592062144145, 4.535678061587798 ] } },
{ "type": "Feature", "properties": { "name": "Mbangassina", "ref:COG": "CE0805" }, "geometry": { "type": "Point", "coordinates": [ 11.462046023503273, 4.584411882835532 ] } },
{ "type": "Feature", "properties": { "name": "Minta", "ref:COG": "CE0302" }, "geometry": { "type": "Point", "coordinates": [ 12.970969734468962, 4.672382861703886 ] } },
{ "type": "Feature", "properties": { "name": "Bibey", "ref:COG": "CE0305" }, "geometry": { "type": "Point", "coordinates": [ 12.843274136504128, 5.032665784717884 ] } },
{ "type": "Feature", "properties": { "name": "Nsem", "ref:COG": "CE0307" }, "geometry": { "type": "Point", "coordinates": [ 12.916811358813343, 4.918677713857164 ] } },
{ "type": "Feature", "properties": { "name": "Nanga-Eboko", "ref:COG": "CE0301" }, "geometry": { "type": "Point", "coordinates": [ 12.440852098997322, 4.752333852197194 ] } },
{ "type": "Feature", "properties": { "name": "Lembe Yezoum", "ref:COG": "CE0306" }, "geometry": { "type": "Point", "coordinates": [ 12.193660018097539, 4.261951034334801 ] } },
{ "type": "Feature", "properties": { "name": "Nkoteng", "ref:COG": "CE0304" }, "geometry": { "type": "Point", "coordinates": [ 12.147731875390594, 4.482489537943612 ] } },
{ "type": "Feature", "properties": { "name": "Mbandjock", "ref:COG": "CE0303" }, "geometry": { "type": "Point", "coordinates": [ 11.875945907984077, 4.438933290557022 ] } },
{ "type": "Feature", "properties": { "name": "Ayos", "ref:COG": "CE0402" }, "geometry": { "type": "Point", "coordinates": [ 12.546203079412821, 4.113867110414214 ] } },
{ "type": "Feature", "properties": { "name": "Kobdombo", "ref:COG": "CE0404" }, "geometry": { "type": "Point", "coordinates": [ 12.699204229144225, 4.057144542457576 ] } },
{ "type": "Feature", "properties": { "name": "Akonolinga", "ref:COG": "CE0401" }, "geometry": { "type": "Point", "coordinates": [ 12.308377074093851, 3.83504992423539 ] } },
{ "type": "Feature", "properties": { "name": "Mengang", "ref:COG": "CE0405" }, "geometry": { "type": "Point", "coordinates": [ 12.08587776621232, 3.84195410955815 ] } },
{ "type": "Feature", "properties": { "name": "Endom", "ref:COG": "CE0403" }, "geometry": { "type": "Point", "coordinates": [ 12.060839387508166, 3.473164249735138 ] } },
{ "type": "Feature", "properties": { "name": "Esse", "ref:COG": "CE0902" }, "geometry": { "type": "Point", "coordinates": [ 11.853549867792733, 4.096905763991881 ] } },
{ "type": "Feature", "properties": { "name": "Afanloum", "ref:COG": "CE0905" }, "geometry": { "type": "Point", "coordinates": [ 12.057691308466, 4.142250376327227 ] } },
{ "type": "Feature", "properties": { "name": "Olanguina", "ref:COG": "CE0906" }, "geometry": { "type": "Point", "coordinates": [ 12.025645604684355, 3.989467490435611 ] } },
{ "type": "Feature", "properties": { "name": "Awaé", "ref:COG": "CE0903" }, "geometry": { "type": "Point", "coordinates": [ 11.835603043038132, 3.906086522563175 ] } },
{ "type": "Feature", "properties": { "name": "Soa", "ref:COG": "CE0904" }, "geometry": { "type": "Point", "coordinates": [ 11.598431079268543, 3.995027427973886 ] } },
{ "type": "Feature", "properties": { "name": "Nkolafamba", "ref:COG": "CE0908" }, "geometry": { "type": "Point", "coordinates": [ 11.699016587726707, 3.824754498905169 ] } },
{ "type": "Feature", "properties": { "name": "Mfou", "ref:COG": "CE0901" }, "geometry": { "type": "Point", "coordinates": [ 11.620773470870891, 3.680235627238879 ] } },
{ "type": "Feature", "properties": { "name": "Dzeng", "ref:COG": "CE0502" }, "geometry": { "type": "Point", "coordinates": [ 11.836449892184444, 3.671650224136297 ] } },
{ "type": "Feature", "properties": { "name": "Nkol-Métet", "ref:COG": "CE0506" }, "geometry": { "type": "Point", "coordinates": [ 11.754199152063938, 3.436272772764024 ] } },
{ "type": "Feature", "properties": { "name": "Mbalmayo", "ref:COG": "CE0501" }, "geometry": { "type": "Point", "coordinates": [ 11.549960340156275, 3.48742609537971 ] } },
{ "type": "Feature", "properties": { "name": "Akoéman", "ref:COG": "CE0504" }, "geometry": { "type": "Point", "coordinates": [ 11.576924124331654, 3.258087063056839 ] } },
{ "type": "Feature", "properties": { "name": "Mengueme", "ref:COG": "CE0505" }, "geometry": { "type": "Point", "coordinates": [ 11.370688057994776, 3.250706477945476 ] } },
{ "type": "Feature", "properties": { "name": "Ngomedzap", "ref:COG": "CE0503" }, "geometry": { "type": "Point", "coordinates": [ 11.210821473348059, 3.322352839324439 ] } },
{ "type": "Feature", "properties": { "name": "Bikok", "ref:COG": "CE1004" }, "geometry": { "type": "Point", "coordinates": [ 11.427463333924885, 3.548595299766184 ] } },
{ "type": "Feature", "properties": { "name": "Ngoumou", "ref:COG": "CE1001" }, "geometry": { "type": "Point", "coordinates": [ 11.297016154146576, 3.631879875584974 ] } },
{ "type": "Feature", "properties": { "name": "Mbankomo", "ref:COG": "CE1003" }, "geometry": { "type": "Point", "coordinates": [ 11.353411767537896, 3.774434879323387 ] } },
{ "type": "Feature", "properties": { "name": "Lobo", "ref:COG": "CE0609" }, "geometry": { "type": "Point", "coordinates": [ 11.24952626914518, 3.911059723079672 ] } },
{ "type": "Feature", "properties": { "name": "Okala", "ref:COG": "CE0607" }, "geometry": { "type": "Point", "coordinates": [ 11.349404170905848, 4.008432795270395 ] } },
{ "type": "Feature", "properties": { "name": "Evodoula", "ref:COG": "CE0604" }, "geometry": { "type": "Point", "coordinates": [ 11.203654711570149, 4.125971300742777 ] } },
{ "type": "Feature", "properties": { "name": "Monatélé", "ref:COG": "CE0601" }, "geometry": { "type": "Point", "coordinates": [ 11.252364442316303, 4.249227438985667 ] } },
{ "type": "Feature", "properties": { "name": "Sa'a", "ref:COG": "CE0602" }, "geometry": { "type": "Point", "coordinates": [ 11.485034713741813, 4.34036032300668 ] } },
{ "type": "Feature", "properties": { "name": "Ebebda", "ref:COG": "CE0605" }, "geometry": { "type": "Point", "coordinates": [ 11.352807489965016, 4.397434983610006 ] } },
{ "type": "Feature", "properties": { "name": "Elig-Mfomo", "ref:COG": "CE0606" }, "geometry": { "type": "Point", "coordinates": [ 11.349601832548093, 4.170437861731172 ] } },
{ "type": "Feature", "properties": { "name": "Obala", "ref:COG": "CE0603" }, "geometry": { "type": "Point", "coordinates": [ 11.511960562950051, 4.128062592962384 ] } },
{ "type": "Feature", "properties": { "name": "Batchenga", "ref:COG": "CE0608" }, "geometry": { "type": "Point", "coordinates": [ 11.649111800354033, 4.284190383872064 ] } },
{ "type": "Feature", "properties": { "name": "Deuk", "ref:COG": "CE0705" }, "geometry": { "type": "Point", "coordinates": [ 11.160466314706381, 5.016596945804408 ] } },
{ "type": "Feature", "properties": { "name": "Bafia", "ref:COG": "CE0701" }, "geometry": { "type": "Point", "coordinates": [ 11.231102484381298, 4.741658858469199 ] } },
{ "type": "Feature", "properties": { "name": "Kon-Yambetta", "ref:COG": "CE0708" }, "geometry": { "type": "Point", "coordinates": [ 11.062040073448037, 4.827708399447967 ] } },
{ "type": "Feature", "properties": { "name": "Bokito", "ref:COG": "CE0702" }, "geometry": { "type": "Point", "coordinates": [ 11.091766190784847, 4.466963675346403 ] } },
{ "type": "Feature", "properties": { "name": "Nitoukou", "ref:COG": "CE0709" }, "geometry": { "type": "Point", "coordinates": [ 10.895112013269239, 4.652795759676566 ] } },
{ "type": "Feature", "properties": { "name": "Makenene", "ref:COG": "CE0706" }, "geometry": { "type": "Point", "coordinates": [ 10.689867202386507, 4.872545427595489 ] } },
{ "type": "Feature", "properties": { "name": "Ndikiniméki", "ref:COG": "CE0703" }, "geometry": { "type": "Point", "coordinates": [ 10.679774843072627, 4.666516357549266 ] } },
{ "type": "Feature", "properties": { "name": "Makak", "ref:COG": "CE0202" }, "geometry": { "type": "Point", "coordinates": [ 11.0439883471419, 3.539630655795866 ] } },
{ "type": "Feature", "properties": { "name": "Bondjock", "ref:COG": "CE0209" }, "geometry": { "type": "Point", "coordinates": [ 11.119775056326556, 3.668569228806887 ] } },
{ "type": "Feature", "properties": { "name": "Matomb", "ref:COG": "CE0206" }, "geometry": { "type": "Point", "coordinates": [ 11.08355942803831, 3.822170411569648 ] } },
{ "type": "Feature", "properties": { "name": "Bot-Makak", "ref:COG": "CE0203" }, "geometry": { "type": "Point", "coordinates": [ 10.994646308848136, 4.018509535391498 ] } },
{ "type": "Feature", "properties": { "name": "Nguibassal", "ref:COG": "CE0210" }, "geometry": { "type": "Point", "coordinates": [ 11.068203411812815, 4.08272600596236 ] } },
{ "type": "Feature", "properties": { "name": "Ngog-Mapubi", "ref:COG": "CE0205" }, "geometry": { "type": "Point", "coordinates": [ 10.891422459247208, 3.901891771643116 ] } },
{ "type": "Feature", "properties": { "name": "Dibang", "ref:COG": "CE0207" }, "geometry": { "type": "Point", "coordinates": [ 10.753330981238625, 3.966125351775696 ] } },
{ "type": "Feature", "properties": { "name": "Biyouha", "ref:COG": "CE0208" }, "geometry": { "type": "Point", "coordinates": [ 10.727398705665244, 3.797883739430442 ] } },
{ "type": "Feature", "properties": { "name": "Messondo", "ref:COG": "CE0204" }, "geometry": { "type": "Point", "coordinates": [ 10.495019108231196, 3.571980292605201 ] } },
{ "type": "Feature", "properties": { "name": "Éséka", "ref:COG": "CE0201" }, "geometry": { "type": "Point", "coordinates": [ 10.831012864997223, 3.633933311678264 ] } },
{ "type": "Feature", "properties": { "name": "Mintom", "ref:COG": "SU0206" }, "geometry": { "type": "Point", "coordinates": [ 13.402914090414114, 2.527053252422633 ] } },
{ "type": "Feature", "properties": { "name": "Djoum", "ref:COG": "SU0202" }, "geometry": { "type": "Point", "coordinates": [ 12.792723477036752, 2.571407144412032 ] } },
{ "type": "Feature", "properties": { "name": "Oveng", "ref:COG": "SU0207" }, "geometry": { "type": "Point", "coordinates": [ 12.282857056381953, 2.447697624324278 ] } },
{ "type": "Feature", "properties": { "name": "Meyomessi", "ref:COG": "SU0208" }, "geometry": { "type": "Point", "coordinates": [ 12.263089122383303, 2.754840634756853 ] } },
{ "type": "Feature", "properties": { "name": "Sangmélima", "ref:COG": "SU0201" }, "geometry": { "type": "Point", "coordinates": [ 11.905738900725041, 2.92561984297641 ] } },
{ "type": "Feature", "properties": { "name": "Meyomessala", "ref:COG": "SU0205" }, "geometry": { "type": "Point", "coordinates": [ 12.25511963697766, 3.091153895191171 ] } },
{ "type": "Feature", "properties": { "name": "Zoétélé", "ref:COG": "SU0204" }, "geometry": { "type": "Point", "coordinates": [ 11.884531616803903, 3.269687022504541 ] } },
{ "type": "Feature", "properties": { "name": "Bengbis", "ref:COG": "SU0203" }, "geometry": { "type": "Point", "coordinates": [ 12.503480924167775, 3.300127524083751 ] } },
{ "type": "Feature", "properties": { "name": "Mvangan", "ref:COG": "SU0103" }, "geometry": { "type": "Point", "coordinates": [ 11.892648510204207, 2.521167841913335 ] } },
{ "type": "Feature", "properties": { "name": "Biwong-Bulu", "ref:COG": "SU0106" }, "geometry": { "type": "Point", "coordinates": [ 11.553092585171456, 2.775101977347791 ] } },
{ "type": "Feature", "properties": { "name": "Ebolowa II", "ref:COG": "SU0108" }, "geometry": { "type": "Point", "coordinates": [ 11.239701758960141, 2.71353242095701 ] } },
{ "type": "Feature", "properties": { "name": "Mengong", "ref:COG": "SU0105" }, "geometry": { "type": "Point", "coordinates": [ 11.422855674470407, 2.926790175285147 ] } },
{ "type": "Feature", "properties": { "name": "Ngoulémakong", "ref:COG": "SU0102" }, "geometry": { "type": "Point", "coordinates": [ 11.484593653416997, 3.084796024729012 ] } },
{ "type": "Feature", "properties": { "name": "Ebolowa I", "ref:COG": "SU0101" }, "geometry": { "type": "Point", "coordinates": [ 10.921204797407993, 2.923197896912979 ] } },
{ "type": "Feature", "properties": { "name": "Efoulan", "ref:COG": "SU0107" }, "geometry": { "type": "Point", "coordinates": [ 10.829125877976876, 3.060496416737143 ] } },
{ "type": "Feature", "properties": { "name": "Biwong-Bané", "ref:COG": "SU0104" }, "geometry": { "type": "Point", "coordinates": [ 11.094824931573354, 3.091748093336861 ] } },
{ "type": "Feature", "properties": { "name": "Ambam", "ref:COG": "SU0401" }, "geometry": { "type": "Point", "coordinates": [ 11.254825283848877, 2.473901039756323 ] } },
{ "type": "Feature", "properties": { "name": "Kyé-Ossi", "ref:COG": "SU0404" }, "geometry": { "type": "Point", "coordinates": [ 11.281144357167625, 2.236567454561314 ] } },
{ "type": "Feature", "properties": { "name": "Olamzé", "ref:COG": "SU0403" }, "geometry": { "type": "Point", "coordinates": [ 10.96689213442939, 2.211944636427293 ] } },
{ "type": "Feature", "properties": { "name": "Mvengue", "ref:COG": "SU0305" }, "geometry": { "type": "Point", "coordinates": [ 10.983325343231657, 3.272026514719181 ] } },
{ "type": "Feature", "properties": { "name": "Lolodorf", "ref:COG": "SU0303" }, "geometry": { "type": "Point", "coordinates": [ 10.692143713657956, 3.269274341059433 ] } },
{ "type": "Feature", "properties": { "name": "Bipindi", "ref:COG": "SU0307" }, "geometry": { "type": "Point", "coordinates": [ 10.431842356484189, 3.19791487239549 ] } },
{ "type": "Feature", "properties": { "name": "Lokoundjé", "ref:COG": "SU0308" }, "geometry": { "type": "Point", "coordinates": [ 10.112192356563165, 3.171659378578366 ] } },
{ "type": "Feature", "properties": { "name": "Kribi I", "ref:COG": "SU0301" }, "geometry": { "type": "Point", "coordinates": [ 9.920353884945996, 2.815542806193906 ] } },
{ "type": "Feature", "properties": { "name": "Kribi II", "ref:COG": "SU0307" }, "geometry": { "type": "Point", "coordinates": [ 9.973917144441609, 3.017802061315704 ] } },
{ "type": "Feature", "properties": { "name": "Niété", "ref:COG": "SU0309" }, "geometry": { "type": "Point", "coordinates": [ 10.123179851663711, 2.729015492772225 ] } },
{ "type": "Feature", "properties": { "name": "Ndom", "ref:COG": "LT0404" }, "geometry": { "type": "Point", "coordinates": [ 10.840559442793797, 4.426752759577457 ] } },
{ "type": "Feature", "properties": { "name": "Nyanon", "ref:COG": "LT0411" }, "geometry": { "type": "Point", "coordinates": [ 10.920809159165961, 4.213821876462694 ] } },
{ "type": "Feature", "properties": { "name": "Massok", "ref:COG": "LT0410" }, "geometry": { "type": "Point", "coordinates": [ 10.629317073090016, 4.127696315850209 ] } },
{ "type": "Feature", "properties": { "name": "Ngambé", "ref:COG": "LT0402" }, "geometry": { "type": "Point", "coordinates": [ 10.610361459053863, 4.315667730266844 ] } },
{ "type": "Feature", "properties": { "name": "Pouma", "ref:COG": "LT0403" }, "geometry": { "type": "Point", "coordinates": [ 10.566518290831631, 3.924938998875823 ] } },
{ "type": "Feature", "properties": { "name": "Ngwei", "ref:COG": "LT0409" }, "geometry": { "type": "Point", "coordinates": [ 10.32270038249262, 3.770926648721361 ] } },
{ "type": "Feature", "properties": { "name": "Édéa I", "ref:COG": "LT0401" }, "geometry": { "type": "Point", "coordinates": [ 10.045874250320587, 3.543969472625376 ] } },
{ "type": "Feature", "properties": { "name": "Édéa II", "ref:COG": "LT0407" }, "geometry": { "type": "Point", "coordinates": [ 10.288386688707842, 4.000396456038763 ] } },
{ "type": "Feature", "properties": { "name": "Dizangué", "ref:COG": "LT0405" }, "geometry": { "type": "Point", "coordinates": [ 9.878031179294307, 3.829838267738827 ] } },
{ "type": "Feature", "properties": { "name": "Dibamba", "ref:COG": "LT0408" }, "geometry": { "type": "Point", "coordinates": [ 10.060962673629584, 4.017245742204712 ] } },
{ "type": "Feature", "properties": { "name": "Mouanko", "ref:COG": "LT0406" }, "geometry": { "type": "Point", "coordinates": [ 9.825637749845139, 3.606357694189132 ] } },
{ "type": "Feature", "properties": { "name": "Douala VI", "ref:COG": "LT0106" }, "geometry": { "type": "Point", "coordinates": [ 9.56938051844082, 3.919560907829812 ] } },
{ "type": "Feature", "properties": { "name": "Douala III", "ref:COG": "LT0103" }, "geometry": { "type": "Point", "coordinates": [ 9.799334847403152, 4.016320317760048 ] } },
{ "type": "Feature", "properties": { "name": "Douala IV", "ref:COG": "LT0104" }, "geometry": { "type": "Point", "coordinates": [ 9.629089671493213, 4.073907704732237 ] } },
{ "type": "Feature", "properties": { "name": "Yingui", "ref:COG": "LT0302" }, "geometry": { "type": "Point", "coordinates": [ 10.343125074696722, 4.440467682089231 ] } },
{ "type": "Feature", "properties": { "name": "Yabassi", "ref:COG": "LT0301" }, "geometry": { "type": "Point", "coordinates": [ 10.003852817065846, 4.397500350004644 ] } },
{ "type": "Feature", "properties": { "name": "Ndobian", "ref:COG": "LT0304" }, "geometry": { "type": "Point", "coordinates": [ 10.328331126767122, 4.959787554694231 ] } },
{ "type": "Feature", "properties": { "name": "Nkondjock", "ref:COG": "LT0304" }, "geometry": { "type": "Point", "coordinates": [ 10.183051440358755, 4.79572754258114 ] } },
{ "type": "Feature", "properties": { "name": "Bonaléa", "ref:COG": "LT0212" }, "geometry": { "type": "Point", "coordinates": [ 9.677294091004509, 4.327570954150405 ] } },
{ "type": "Feature", "properties": { "name": "Dibombari", "ref:COG": "LT0203" }, "geometry": { "type": "Point", "coordinates": [ 9.594128731340961, 4.187009778634706 ] } },
{ "type": "Feature", "properties": { "name": "Loum", "ref:COG": "LT0206" }, "geometry": { "type": "Point", "coordinates": [ 9.812275805680603, 4.698676571231423 ] } },
{ "type": "Feature", "properties": { "name": "Mbanga", "ref:COG": "LT0202" }, "geometry": { "type": "Point", "coordinates": [ 9.572117030251823, 4.420616490307838 ] } },
{ "type": "Feature", "properties": { "name": "Mombo", "ref:COG": "LT0213" }, "geometry": { "type": "Point", "coordinates": [ 9.579344280339942, 4.559092541223413 ] } },
{ "type": "Feature", "properties": { "name": "Penja", "ref:COG": "LT0209" }, "geometry": { "type": "Point", "coordinates": [ 9.697483126269347, 4.573358107212786 ] } },
{ "type": "Feature", "properties": { "name": "Manjo", "ref:COG": "LT0204" }, "geometry": { "type": "Point", "coordinates": [ 9.79262577851514, 4.842562515672275 ] } },
{ "type": "Feature", "properties": { "name": "Ebone", "ref:COG": "LT0208" }, "geometry": { "type": "Point", "coordinates": [ 9.926278655057175, 4.838632082379297 ] } },
{ "type": "Feature", "properties": { "name": "Baré", "ref:COG": "LT0207" }, "geometry": { "type": "Point", "coordinates": [ 10.009228151247818, 4.996148971605005 ] } },
{ "type": "Feature", "properties": { "name": "Mélong", "ref:COG": "LT0205" }, "geometry": { "type": "Point", "coordinates": [ 9.882725737344732, 5.163017890554491 ] } },
{ "type": "Feature", "properties": { "name": "Nkongsamba I", "ref:COG": "LT0201" }, "geometry": { "type": "Point", "coordinates": [ 10.011000708624904, 4.899428567603353 ] } },
{ "type": "Feature", "properties": { "name": "Nkongsamba II", "ref:COG": "LT0210" }, "geometry": { "type": "Point", "coordinates": [ 9.925174239691763, 4.984617209647643 ] } },
{ "type": "Feature", "properties": { "name": "Nkongsamba III", "ref:COG": "LT0211" }, "geometry": { "type": "Point", "coordinates": [ 9.889278154693631, 4.976755007137204 ] } },
{ "type": "Feature", "properties": { "name": "Tiko", "ref:COG": "SW0103" }, "geometry": { "type": "Point", "coordinates": [ 9.411005231989284, 4.091511173996331 ] } },
{ "type": "Feature", "properties": { "name": "Limbé III", "ref:COG": "SW0106" }, "geometry": { "type": "Point", "coordinates": [ 9.299625693090325, 3.965997315890216 ] } },
{ "type": "Feature", "properties": { "name": "Limbé I", "ref:COG": "SW0101" }, "geometry": { "type": "Point", "coordinates": [ 9.249933322161047, 4.040265766906506 ] } },
{ "type": "Feature", "properties": { "name": "Limbé II", "ref:COG": "SW0105" }, "geometry": { "type": "Point", "coordinates": [ 9.149330789153336, 4.033537924626696 ] } },
{ "type": "Feature", "properties": { "name": "Buea", "ref:COG": "SW0102" }, "geometry": { "type": "Point", "coordinates": [ 9.224067039065242, 4.160535591053689 ] } },
{ "type": "Feature", "properties": { "name": "Idenau", "ref:COG": "SW0107" }, "geometry": { "type": "Point", "coordinates": [ 9.050258976332991, 4.178474322208491 ] } },
{ "type": "Feature", "properties": { "name": "Muyuka", "ref:COG": "SW0104" }, "geometry": { "type": "Point", "coordinates": [ 9.336790643758574, 4.324716186472942 ] } },
{ "type": "Feature", "properties": { "name": "Mbonge", "ref:COG": "SW0402" }, "geometry": { "type": "Point", "coordinates": [ 9.13993480173859, 4.409896783197419 ] } },
{ "type": "Feature", "properties": { "name": "Kumba I", "ref:COG": "SW0401" }, "geometry": { "type": "Point", "coordinates": [ 9.331002596452713, 4.550000762987271 ] } },
{ "type": "Feature", "properties": { "name": "Kumba III", "ref:COG": "SW0405" }, "geometry": { "type": "Point", "coordinates": [ 9.460632397674873, 4.515906088906334 ] } },
{ "type": "Feature", "properties": { "name": "Kumba II", "ref:COG": "SW0404" }, "geometry": { "type": "Point", "coordinates": [ 9.457608020915814, 4.723374797356411 ] } },
{ "type": "Feature", "properties": { "name": "Konye", "ref:COG": "SW0403" }, "geometry": { "type": "Point", "coordinates": [ 9.348619180577176, 4.870150822204583 ] } },
{ "type": "Feature", "properties": { "name": "Bangem", "ref:COG": "SW0601" }, "geometry": { "type": "Point", "coordinates": [ 9.681674779934536, 5.068741398978742 ] } },
{ "type": "Feature", "properties": { "name": "Tombel", "ref:COG": "SW0603" }, "geometry": { "type": "Point", "coordinates": [ 9.604097752611542, 4.857121431191539 ] } },
{ "type": "Feature", "properties": { "name": "Nguti", "ref:COG": "SW0602" }, "geometry": { "type": "Point", "coordinates": [ 9.545472322720849, 5.265974415543045 ] } },
{ "type": "Feature", "properties": { "name": "Toko", "ref:COG": "SW0509" }, "geometry": { "type": "Point", "coordinates": [ 9.109500753939708, 5.170148034257303 ] } },
{ "type": "Feature", "properties": { "name": "Mudemba", "ref:COG": "SW0501" }, "geometry": { "type": "Point", "coordinates": [ 8.912730384107434, 4.990300765539395 ] } },
{ "type": "Feature", "properties": { "name": "Isanguele", "ref:COG": "SW0504" }, "geometry": { "type": "Point", "coordinates": [ 8.638491472761281, 4.787951649399404 ] } },
{ "type": "Feature", "properties": { "name": "Idabato", "ref:COG": "SW0505" }, "geometry": { "type": "Point", "coordinates": [ 8.602954924346058, 4.520150057145019 ] } },
{ "type": "Feature", "properties": { "name": "Kombo-Abedimo", "ref:COG": "SW0507" }, "geometry": { "type": "Point", "coordinates": [ 8.593995249294816, 4.601693358171444 ] } },
{ "type": "Feature", "properties": { "name": "Kombo-Itindi", "ref:COG": "SW0506" }, "geometry": { "type": "Point", "coordinates": [ 8.756428729144602, 4.665876081972812 ] } },
{ "type": "Feature", "properties": { "name": "Bamusso", "ref:COG": "SW0503" }, "geometry": { "type": "Point", "coordinates": [ 8.972891381923374, 4.478603554323286 ] } },
{ "type": "Feature", "properties": { "name": "Dikome-Balue", "ref:COG": "SW0508" }, "geometry": { "type": "Point", "coordinates": [ 9.145715261632008, 4.774170790030137 ] } },
{ "type": "Feature", "properties": { "name": "Ekondo-Titi", "ref:COG": "SW0502" }, "geometry": { "type": "Point", "coordinates": [ 8.986976456065086, 4.686794993442072 ] } },
{ "type": "Feature", "properties": { "name": "Eyumodjock", "ref:COG": "SW0203" }, "geometry": { "type": "Point", "coordinates": [ 8.974889610047777, 5.605605845798634 ] } },
{ "type": "Feature", "properties": { "name": "Mamfé", "ref:COG": "SW0201" }, "geometry": { "type": "Point", "coordinates": [ 9.33685067640765, 5.627572539678511 ] } },
{ "type": "Feature", "properties": { "name": "Tinto", "ref:COG": "SW0204" }, "geometry": { "type": "Point", "coordinates": [ 9.706566828172816, 5.630850057197567 ] } },
{ "type": "Feature", "properties": { "name": "Akwaya", "ref:COG": "SW0202" }, "geometry": { "type": "Point", "coordinates": [ 9.448943779860834, 6.134652810298325 ] } },
{ "type": "Feature", "properties": { "name": "Alou", "ref:COG": "SW0303" }, "geometry": { "type": "Point", "coordinates": [ 9.927803080076535, 5.557224067283092 ] } },
{ "type": "Feature", "properties": { "name": "Menji", "ref:COG": "SW0301" }, "geometry": { "type": "Point", "coordinates": [ 9.857702220432476, 5.445616195927476 ] } },
{ "type": "Feature", "properties": { "name": "Wabane", "ref:COG": "SW0302" }, "geometry": { "type": "Point", "coordinates": [ 9.981536628098489, 5.670114850422224 ] } },
{ "type": "Feature", "properties": { "name": "Bangangté", "ref:COG": "OU0601" }, "geometry": { "type": "Point", "coordinates": [ 10.623871077922722, 5.130093680394747 ] } },
{ "type": "Feature", "properties": { "name": "Tonga", "ref:COG": "OU0603" }, "geometry": { "type": "Point", "coordinates": [ 10.566180131857896, 4.960028977881198 ] } },
{ "type": "Feature", "properties": { "name": "Bazou", "ref:COG": "OU0602" }, "geometry": { "type": "Point", "coordinates": [ 10.440166981951005, 5.054836541007759 ] } },
{ "type": "Feature", "properties": { "name": "Foumbot", "ref:COG": "OU0302" }, "geometry": { "type": "Point", "coordinates": [ 10.646202293753108, 5.429264414765974 ] } },
{ "type": "Feature", "properties": { "name": "Malentouen", "ref:COG": "OU0304" }, "geometry": { "type": "Point", "coordinates": [ 11.129411426336159, 5.68129613498466 ] } },
{ "type": "Feature", "properties": { "name": "Foumban", "ref:COG": "OU0301" }, "geometry": { "type": "Point", "coordinates": [ 10.878334949227261, 5.710182944464586 ] } },
{ "type": "Feature", "properties": { "name": "Massangam", "ref:COG": "OU0305" }, "geometry": { "type": "Point", "coordinates": [ 10.909749766158651, 5.308055365376058 ] } },
{ "type": "Feature", "properties": { "name": "Kouoptamo", "ref:COG": "OU0308" }, "geometry": { "type": "Point", "coordinates": [ 10.568626072389373, 5.668677268373493 ] } },
{ "type": "Feature", "properties": { "name": "Koutaba", "ref:COG": "OU0306" }, "geometry": { "type": "Point", "coordinates": [ 10.728575220869663, 5.668202026733417 ] } },
{ "type": "Feature", "properties": { "name": "Bangourain", "ref:COG": "OU0307" }, "geometry": { "type": "Point", "coordinates": [ 10.70416335245624, 5.903960014498685 ] } },
{ "type": "Feature", "properties": { "name": "Njimom", "ref:COG": "OU0309" }, "geometry": { "type": "Point", "coordinates": [ 10.943091244918405, 5.892351586081336 ] } },
{ "type": "Feature", "properties": { "name": "Magba", "ref:COG": "OU0303" }, "geometry": { "type": "Point", "coordinates": [ 11.142804631847971, 6.071416412115789 ] } },
{ "type": "Feature", "properties": { "name": "Bafoussam II", "ref:COG": "OU0102" }, "geometry": { "type": "Point", "coordinates": [ 10.440210946869055, 5.55087549161326 ] } },
{ "type": "Feature", "properties": { "name": "Bafoussam III", "ref:COG": "OU0103" }, "geometry": { "type": "Point", "coordinates": [ 10.368473484842756, 5.48916113067215 ] } },
{ "type": "Feature", "properties": { "name": "Pete-Bandjoun", "ref:COG": "OU0702" }, "geometry": { "type": "Point", "coordinates": [ 10.44228784225389, 5.393569382646126 ] } },
{ "type": "Feature", "properties": { "name": "Bayangam", "ref:COG": "OU0701" }, "geometry": { "type": "Point", "coordinates": [ 10.46611213827947, 5.265222198132419 ] } },
{ "type": "Feature", "properties": { "name": "Demding", "ref:COG": "OU0703" }, "geometry": { "type": "Point", "coordinates": [ 10.51426865723691, 5.320204850653231 ] } },
{ "type": "Feature", "properties": { "name": "Bamendjou", "ref:COG": "OU0801" }, "geometry": { "type": "Point", "coordinates": [ 10.316394257447486, 5.378869280802685 ] } },
{ "type": "Feature", "properties": { "name": "Baham", "ref:COG": "OU0801" }, "geometry": { "type": "Point", "coordinates": [ 10.381537235858499, 5.312472477655276 ] } },
{ "type": "Feature", "properties": { "name": "Bangou", "ref:COG": "OU0803" }, "geometry": { "type": "Point", "coordinates": [ 10.368634732502581, 5.223973948974033 ] } },
{ "type": "Feature", "properties": { "name": "Batié", "ref:COG": "OU0804" }, "geometry": { "type": "Point", "coordinates": [ 10.295549206045395, 5.287818805352526 ] } },
{ "type": "Feature", "properties": { "name": "Bana", "ref:COG": "OU0402" }, "geometry": { "type": "Point", "coordinates": [ 10.301789370763357, 5.120852040235304 ] } },
{ "type": "Feature", "properties": { "name": "Bandja", "ref:COG": "OU0403" }, "geometry": { "type": "Point", "coordinates": [ 10.223059355522262, 5.263831333030755 ] } },
{ "type": "Feature", "properties": { "name": "Bafang", "ref:COG": "OU0401" }, "geometry": { "type": "Point", "coordinates": [ 10.17197288520614, 5.117237289262577 ] } },
{ "type": "Feature", "properties": { "name": "Bakou", "ref:COG": "OU0407" }, "geometry": { "type": "Point", "coordinates": [ 10.14299343241715, 5.013996174795826 ] } },
{ "type": "Feature", "properties": { "name": "Banka", "ref:COG": "OU0405" }, "geometry": { "type": "Point", "coordinates": [ 10.197629414516395, 5.189192214085278 ] } },
{ "type": "Feature", "properties": { "name": "Banwa", "ref:COG": "OU0406" }, "geometry": { "type": "Point", "coordinates": [ 10.071083959550418, 5.094933351591141 ] } },
{ "type": "Feature", "properties": { "name": "Kékem", "ref:COG": "OU0404" }, "geometry": { "type": "Point", "coordinates": [ 10.071132850839923, 5.175018611688248 ] } },
{ "type": "Feature", "properties": { "name": "Dschang", "ref:COG": "OU0501" }, "geometry": { "type": "Point", "coordinates": [ 10.025556467874482, 5.423150345106693 ] } },
{ "type": "Feature", "properties": { "name": "Fokoué", "ref:COG": "OU0504" }, "geometry": { "type": "Point", "coordinates": [ 10.11918007235591, 5.330274151638492 ] } },
{ "type": "Feature", "properties": { "name": "Fongo-Tongo", "ref:COG": "OU0506" }, "geometry": { "type": "Point", "coordinates": [ 10.010781630485543, 5.547092308632981 ] } },
{ "type": "Feature", "properties": { "name": "Santchou", "ref:COG": "OU0503" }, "geometry": { "type": "Point", "coordinates": [ 9.966886869498591, 5.295867968934576 ] } },
{ "type": "Feature", "properties": { "name": "Nkong-Zem", "ref:COG": "OU0505" }, "geometry": { "type": "Point", "coordinates": [ 10.114957744724263, 5.509764287965845 ] } },
{ "type": "Feature", "properties": { "name": "Penka-Michel", "ref:COG": "OU0502" }, "geometry": { "type": "Point", "coordinates": [ 10.23829461409224, 5.442580528478086 ] } },
{ "type": "Feature", "properties": { "name": "Batcham", "ref:COG": "OU0202" }, "geometry": { "type": "Point", "coordinates": [ 10.197111832256544, 5.572253034490481 ] } },
{ "type": "Feature", "properties": { "name": "Babadjou", "ref:COG": "OU0204" }, "geometry": { "type": "Point", "coordinates": [ 10.158906250800744, 5.693325491720967 ] } },
{ "type": "Feature", "properties": { "name": "Galim", "ref:COG": "OU0203" }, "geometry": { "type": "Point", "coordinates": [ 10.417544283579337, 5.734417425797941 ] } },
{ "type": "Feature", "properties": { "name": "Mbouda", "ref:COG": "OU0201" }, "geometry": { "type": "Point", "coordinates": [ 10.319395809255223, 5.624972192625006 ] } },
{ "type": "Feature", "properties": { "name": "Balikumbat", "ref:COG": "NW0703" }, "geometry": { "type": "Point", "coordinates": [ 10.390627846844465, 5.873071111242798 ] } },
{ "type": "Feature", "properties": { "name": "Ndop", "ref:COG": "NW0701" }, "geometry": { "type": "Point", "coordinates": [ 10.505637840298959, 5.929983083588972 ] } },
{ "type": "Feature", "properties": { "name": "Babessi", "ref:COG": "NW0702" }, "geometry": { "type": "Point", "coordinates": [ 10.515179134614188, 6.033490969550443 ] } },
{ "type": "Feature", "properties": { "name": "Jakiri", "ref:COG": "NW0202" }, "geometry": { "type": "Point", "coordinates": [ 10.66363007623168, 6.092454867517823 ] } },
{ "type": "Feature", "properties": { "name": "Mbiame", "ref:COG": "NW0203" }, "geometry": { "type": "Point", "coordinates": [ 10.89301340908791, 6.147943615720497 ] } },
{ "type": "Feature", "properties": { "name": "Kumbo", "ref:COG": "NW0201" }, "geometry": { "type": "Point", "coordinates": [ 10.710150195912806, 6.215858340847338 ] } },
{ "type": "Feature", "properties": { "name": "Nkum", "ref:COG": "NW0206" }, "geometry": { "type": "Point", "coordinates": [ 10.760860551662441, 6.31825488260952 ] } },
{ "type": "Feature", "properties": { "name": "Elak", "ref:COG": "NW0204" }, "geometry": { "type": "Point", "coordinates": [ 10.519347178196931, 6.202854298138395 ] } },
{ "type": "Feature", "properties": { "name": "Nkor", "ref:COG": "NW0205" }, "geometry": { "type": "Point", "coordinates": [ 10.598682848432681, 6.36111042536153 ] } },
{ "type": "Feature", "properties": { "name": "Bali", "ref:COG": "NW0102" }, "geometry": { "type": "Point", "coordinates": [ 10.015513640423073, 5.875259176154718 ] } },
{ "type": "Feature", "properties": { "name": "Santa", "ref:COG": "NW0105" }, "geometry": { "type": "Point", "coordinates": [ 10.144501056123405, 5.804228884148456 ] } },
{ "type": "Feature", "properties": { "name": "Bamenda I", "ref:COG": "NW0101" }, "geometry": { "type": "Point", "coordinates": [ 10.208758201778213, 5.916123599970956 ] } },
{ "type": "Feature", "properties": { "name": "Bamenda 2", "ref:COG": "NW0106" }, "geometry": { "type": "Point", "coordinates": [ 10.098062352033891, 5.971084130817252 ] } },
{ "type": "Feature", "properties": { "name": "Bamenda 3", "ref:COG": "NW0107" }, "geometry": { "type": "Point", "coordinates": [ 10.181922189356831, 5.991543992894402 ] } },
{ "type": "Feature", "properties": { "name": "Bafut", "ref:COG": "NW0104" }, "geometry": { "type": "Point", "coordinates": [ 10.072688065298168, 6.154337474058013 ] } },
{ "type": "Feature", "properties": { "name": "Tubah", "ref:COG": "NW0103" }, "geometry": { "type": "Point", "coordinates": [ 10.287046734688516, 6.038773541248747 ] } },
{ "type": "Feature", "properties": { "name": "Batibo", "ref:COG": "NW0402" }, "geometry": { "type": "Point", "coordinates": [ 9.895535228250278, 5.827698644090121 ] } },
{ "type": "Feature", "properties": { "name": "Mbengwi", "ref:COG": "NW0401" }, "geometry": { "type": "Point", "coordinates": [ 9.959622106720555, 6.043396330296395 ] } },
{ "type": "Feature", "properties": { "name": "Andek", "ref:COG": "NW0404" }, "geometry": { "type": "Point", "coordinates": [ 9.812039602917771, 5.97448774616979 ] } },
{ "type": "Feature", "properties": { "name": "Nijkwa", "ref:COG": "NW0403" }, "geometry": { "type": "Point", "coordinates": [ 9.830076474965862, 6.132500991825193 ] } },
{ "type": "Feature", "properties": { "name": "Widikum-Boffé", "ref:COG": "NW0405" }, "geometry": { "type": "Point", "coordinates": [ 9.709162813126355, 5.939531242043562 ] } },
{ "type": "Feature", "properties": { "name": "Belo", "ref:COG": "NW0603" }, "geometry": { "type": "Point", "coordinates": [ 10.361328058242632, 6.194317768638114 ] } },
{ "type": "Feature", "properties": { "name": "Fundong", "ref:COG": "NW0601" }, "geometry": { "type": "Point", "coordinates": [ 10.301257642744755, 6.316330490948609 ] } },
{ "type": "Feature", "properties": { "name": "Njinikom", "ref:COG": "NW0604" }, "geometry": { "type": "Point", "coordinates": [ 10.220701940975427, 6.225667966690113 ] } },
{ "type": "Feature", "properties": { "name": "Fonfuka", "ref:COG": "NW0602" }, "geometry": { "type": "Point", "coordinates": [ 10.436653767354176, 6.505984548550738 ] } },
{ "type": "Feature", "properties": { "name": "Benakuma", "ref:COG": "NW0504" }, "geometry": { "type": "Point", "coordinates": [ 9.869142366304287, 6.412430522939934 ] } },
{ "type": "Feature", "properties": { "name": "Wum", "ref:COG": "NW0501" }, "geometry": { "type": "Point", "coordinates": [ 10.080287509560266, 6.371196658581593 ] } },
{ "type": "Feature", "properties": { "name": "Zhoa", "ref:COG": "NW0503" }, "geometry": { "type": "Point", "coordinates": [ 10.06469169197311, 6.611597464976035 ] } },
{ "type": "Feature", "properties": { "name": "Furu-Awa", "ref:COG": "NW0502" }, "geometry": { "type": "Point", "coordinates": [ 10.231815219931871, 6.814435725022851 ] } },
{ "type": "Feature", "properties": { "name": "Misaje", "ref:COG": "NW0305" }, "geometry": { "type": "Point", "coordinates": [ 10.546731753082407, 6.702900060648393 ] } },
{ "type": "Feature", "properties": { "name": "Nkambe", "ref:COG": "NW0301" }, "geometry": { "type": "Point", "coordinates": [ 10.741745643542085, 6.554195953764151 ] } },
{ "type": "Feature", "properties": { "name": "Ako", "ref:COG": "NW0303" }, "geometry": { "type": "Point", "coordinates": [ 10.690935230262292, 6.858067932059596 ] } },
{ "type": "Feature", "properties": { "name": "Ndu", "ref:COG": "NW0304" }, "geometry": { "type": "Point", "coordinates": [ 10.851061000593571, 6.410999252994097 ] } },
{ "type": "Feature", "properties": { "name": "Nwa", "ref:COG": "NW0302" }, "geometry": { "type": "Point", "coordinates": [ 11.024131477682541, 6.493327234291668 ] } },
{ "type": "Feature", "properties": { "name": "Bassamba", "ref:COG": "OU0604" }, "geometry": { "type": "Point", "coordinates": [ 10.568776514794669, 5.049762597410194 ] } },
{ "type": "Feature", "properties": { "name": "Ombessa", "ref:COG": "CE0704" }, "geometry": { "type": "Point", "coordinates": [ 11.316368347064952, 4.616133277945203 ] } },
{ "type": "Feature", "properties": { "name": "Bafoussam I", "ref:COG": "OU0101" }, "geometry": { "type": "Point", "coordinates": [ 10.500955081504587, 5.48973871005276 ] } },
{ "type": "Feature", "properties": { "name": "Kiiki", "ref:COG": "" }, "geometry": { "type": "Point", "coordinates": [ 11.139315020146755, 4.684406098966194 ] } },
{ "type": "Feature", "properties": { "name": "Ma'an", "ref:COG": "" }, "geometry": { "type": "Point", "coordinates": [ 10.680789079016686, 2.428787494245197 ] } },
{ "type": "Feature", "properties": { "name": "Akom II", "ref:COG": "" }, "geometry": { "type": "Point", "coordinates": [ 10.442686899920917, 2.822550444080502 ] } },
{ "type": "Feature", "properties": { "name": "Commune de Gazawa", "ref:COG": "" }, "geometry": { "type": "Point", "coordinates": [ 14.114080776002629, 10.54858049159993 ] } }
]
}
